{
  "test": "C2: Leave-One-Out Stability for Mortuary Signal",
  "seed": 42,
  "baseline": {
    "total_mortuary_sites": 1568,
    "pre2000bce_mortuary_count": 150,
    "observed_on_corridor": 41,
    "mc_mean": 6.21,
    "mc_std": 2.25,
    "Z_baseline": 15.45
  },
  "leave_one_out": {
    "n_sites": 41,
    "min_Z": 13.66,
    "max_Z_drop": 1.79,
    "most_influential_site": "Helwan necropolis",
    "sites": [
      {
        "index": 1,
        "name": "Pyramid of Sahure",
        "lat": 29.8975674595,
        "lon": 31.2048106295,
        "featureType": "pyramid",
        "minDate": -2670.0,
        "dist_gc_km": 3.11,
        "Z_without": 15.01,
        "Z_drop": 0.44
      },
      {
        "index": 2,
        "name": "Mastaba of Ptahshepses at Abusir",
        "lat": 29.8965413666,
        "lon": 31.204560324,
        "featureType": "tomb",
        "minDate": -2670.0,
        "dist_gc_km": 3.22,
        "Z_without": 15.65,
        "Z_drop": -0.2
      },
      {
        "index": 3,
        "name": "Abu Sir",
        "lat": 29.896115,
        "lon": 31.20404,
        "featureType": "cemetery",
        "minDate": -2670.0,
        "dist_gc_km": 3.26,
        "Z_without": 14.75,
        "Z_drop": 0.7
      },
      {
        "index": 4,
        "name": "Pyramid of Neferirkare",
        "lat": 29.89497065,
        "lon": 31.2024288,
        "featureType": "pyramid",
        "minDate": -2670.0,
        "dist_gc_km": 3.38,
        "Z_without": 15.24,
        "Z_drop": 0.21
      },
      {
        "index": 5,
        "name": "Abusir South",
        "lat": 29.8832291844,
        "lon": 31.2097395019,
        "featureType": "cemetery",
        "minDate": -2670.0,
        "dist_gc_km": 4.74,
        "Z_without": 14.93,
        "Z_drop": 0.52
      },
      {
        "index": 6,
        "name": "Sacred Animal Necropolis (\u1e62aqq\u0101rah)",
        "lat": 29.8817400893,
        "lon": 31.2153024975,
        "featureType": "cemetery",
        "minDate": -4500.0,
        "dist_gc_km": 4.95,
        "Z_without": 16.19,
        "Z_drop": -0.74
      },
      {
        "index": 7,
        "name": "Helwan necropolis",
        "lat": 29.8835905399,
        "lon": 31.295443074,
        "featureType": "cemetery",
        "minDate": -2950.0,
        "dist_gc_km": 5.43,
        "Z_without": 13.66,
        "Z_drop": 1.79
      },
      {
        "index": 8,
        "name": "Tomb of Mereruka",
        "lat": 29.8757920202,
        "lon": 31.2211994488,
        "featureType": "tomb",
        "minDate": -2670.0,
        "dist_gc_km": 5.66,
        "Z_without": 14.22,
        "Z_drop": 1.23
      },
      {
        "index": 9,
        "name": "Mastaba of Kagemni",
        "lat": 29.8757727,
        "lon": 31.2213817,
        "featureType": "tomb",
        "minDate": -2670.0,
        "dist_gc_km": 5.67,
        "Z_without": 15.09,
        "Z_drop": 0.36
      },
      {
        "index": 10,
        "name": "Pyramid of Teti",
        "lat": 29.8751649794,
        "lon": 31.2217551626,
        "featureType": "pyramid",
        "minDate": -2670.0,
        "dist_gc_km": 5.74,
        "Z_without": 14.76,
        "Z_drop": 0.68
      },
      {
        "index": 11,
        "name": "Pyramids of Queens",
        "lat": 29.9717794,
        "lon": 31.1281233,
        "featureType": "pyramid",
        "minDate": -2670.0,
        "dist_gc_km": 5.77,
        "Z_without": 15.85,
        "Z_drop": -0.4
      },
      {
        "index": 12,
        "name": "Pyramid of Userkaf",
        "lat": 29.8737765,
        "lon": 31.2185497,
        "featureType": "pyramid,tomb",
        "minDate": -2670.0,
        "dist_gc_km": 5.86,
        "Z_without": 14.83,
        "Z_drop": 0.62
      },
      {
        "index": 13,
        "name": "Pyramid of Menkaure",
        "lat": 29.9728781,
        "lon": 31.128802,
        "featureType": "pyramid",
        "minDate": -2670.0,
        "dist_gc_km": 5.88,
        "Z_without": 14.81,
        "Z_drop": 0.64
      },
      {
        "index": 14,
        "name": "The Giza Necropolis",
        "lat": 29.973088495,
        "lon": 31.1297475567,
        "featureType": "cemetery",
        "minDate": -2670.0,
        "dist_gc_km": 5.9,
        "Z_without": 14.22,
        "Z_drop": 1.23
      },
      {
        "index": 15,
        "name": "Pyramid of Khentkawes",
        "lat": 29.9735563,
        "lon": 31.1356834,
        "featureType": "pyramid",
        "minDate": -2670.0,
        "dist_gc_km": 5.9,
        "Z_without": 16.78,
        "Z_drop": -1.33
      },
      {
        "index": 16,
        "name": "Pyramid of Djoser",
        "lat": 29.8707675098,
        "lon": 31.2166486516,
        "featureType": "pyramid",
        "minDate": -2670.0,
        "dist_gc_km": 6.18,
        "Z_without": 14.12,
        "Z_drop": 1.33
      },
      {
        "index": 17,
        "name": "Pyramid of Khafre",
        "lat": 29.9769101,
        "lon": 31.1296934,
        "featureType": "pyramid",
        "minDate": -2670.0,
        "dist_gc_km": 6.32,
        "Z_without": 14.66,
        "Z_drop": 0.79
      },
      {
        "index": 18,
        "name": "Giza",
        "lat": 29.9777703374,
        "lon": 31.1319071185,
        "featureType": "cemetery,pyramid,tomb",
        "minDate": -2670.0,
        "dist_gc_km": 6.4,
        "Z_without": 13.84,
        "Z_drop": 1.61
      },
      {
        "index": 19,
        "name": "Pyramid of Unas",
        "lat": 29.8681961251,
        "lon": 31.2149708867,
        "featureType": "pyramid",
        "minDate": -2670.0,
        "dist_gc_km": 6.45,
        "Z_without": 14.17,
        "Z_drop": 1.28
      },
      {
        "index": 20,
        "name": "Tomb of Hetepheres I",
        "lat": 29.9790508,
        "lon": 31.1359926,
        "featureType": "tomb",
        "minDate": -2670.0,
        "dist_gc_km": 6.51,
        "Z_without": 15.46,
        "Z_drop": -0.01
      },
      {
        "index": 21,
        "name": "The Great Pyramid",
        "lat": 29.9791600351,
        "lon": 31.1342156516,
        "featureType": "pyramid",
        "minDate": -2670.0,
        "dist_gc_km": 6.53,
        "Z_without": 15.39,
        "Z_drop": 0.05
      },
      {
        "index": 22,
        "name": "Pyramid of Sekhemkhet",
        "lat": 29.8661529394,
        "lon": 31.2136320778,
        "featureType": "pyramid",
        "minDate": -2670.0,
        "dist_gc_km": 6.66,
        "Z_without": 15.39,
        "Z_drop": 0.06
      },
      {
        "index": 23,
        "name": "Abu Bakr cemetery",
        "lat": 29.9818377994,
        "lon": 31.1271615028,
        "featureType": "cemetery",
        "minDate": -2670.0,
        "dist_gc_km": 6.89,
        "Z_without": 16.43,
        "Z_drop": -0.98
      },
      {
        "index": 24,
        "name": "Saqqarah",
        "lat": 29.862380874,
        "lon": 31.2193541512,
        "featureType": "cemetery",
        "minDate": -2950.0,
        "dist_gc_km": 7.13,
        "Z_without": 15.64,
        "Z_drop": -0.19
      },
      {
        "index": 25,
        "name": "Pyramid of Pepi I at Saqqarah",
        "lat": 29.8547523,
        "lon": 31.2186043,
        "featureType": "pyramid,tomb",
        "minDate": -2670.0,
        "dist_gc_km": 7.97,
        "Z_without": 15.04,
        "Z_drop": 0.41
      },
      {
        "index": 26,
        "name": "Necropolis and Mortuary Complex of Pepi I",
        "lat": 29.8542114233,
        "lon": 31.2190057132,
        "featureType": "cemetery,pyramid",
        "minDate": -2670.0,
        "dist_gc_km": 8.03,
        "Z_without": 16.15,
        "Z_drop": -0.7
      },
      {
        "index": 27,
        "name": "Pyramid of Djedkare-Isesi",
        "lat": 29.850964,
        "lon": 31.22094695,
        "featureType": "pyramid",
        "minDate": -2670.0,
        "dist_gc_km": 8.41,
        "Z_without": 14.46,
        "Z_drop": 0.99
      },
      {
        "index": 28,
        "name": "Mastabet el-Fara'un",
        "lat": 29.8351588,
        "lon": 31.215421,
        "featureType": "tomb",
        "minDate": -2670.0,
        "dist_gc_km": 10.11,
        "Z_without": 15.42,
        "Z_drop": 0.03
      },
      {
        "index": 29,
        "name": "Pyramid of Khendjer",
        "lat": 29.83229655,
        "lon": 31.2239184,
        "featureType": "pyramid,tomb",
        "minDate": -2010.0,
        "dist_gc_km": 10.5,
        "Z_without": 15.29,
        "Z_drop": 0.16
      },
      {
        "index": 30,
        "name": "Pyramid-complex of Senusret III",
        "lat": 29.8185716356,
        "lon": 31.2257073725,
        "featureType": "pyramid,tomb",
        "minDate": -2010.0,
        "dist_gc_km": 12.04,
        "Z_without": 14.84,
        "Z_drop": 0.61
      },
      {
        "index": 31,
        "name": "Red Pyramid",
        "lat": 29.8085513,
        "lon": 31.20624445,
        "featureType": "pyramid",
        "minDate": -2670.0,
        "dist_gc_km": 12.98,
        "Z_without": 15.03,
        "Z_drop": 0.42
      },
      {
        "index": 32,
        "name": "Pyramid of Djedefre",
        "lat": 30.0327194,
        "lon": 31.0742458,
        "featureType": "tomb",
        "minDate": -2670.0,
        "dist_gc_km": 12.98,
        "Z_without": 16.03,
        "Z_drop": -0.59
      },
      {
        "index": 33,
        "name": "Abu Rawash",
        "lat": 30.0341969932,
        "lon": 31.0794498643,
        "featureType": "cemetery",
        "minDate": -2670.0,
        "dist_gc_km": 13.1,
        "Z_without": 14.06,
        "Z_drop": 1.39
      },
      {
        "index": 34,
        "name": "White Pyramid",
        "lat": 29.805854985,
        "lon": 31.2238459406,
        "featureType": "pyramid",
        "minDate": -2010.0,
        "dist_gc_km": 13.43,
        "Z_without": 15.15,
        "Z_drop": 0.3
      },
      {
        "index": 35,
        "name": "Takyris",
        "lat": 29.7998647855,
        "lon": 31.2167046376,
        "featureType": "cemetery",
        "minDate": -2670.0,
        "dist_gc_km": 14.03,
        "Z_without": 14.84,
        "Z_drop": 0.61
      },
      {
        "index": 36,
        "name": "Black Pyramid",
        "lat": 29.7917430749,
        "lon": 31.2239092367,
        "featureType": "pyramid",
        "minDate": -2010.0,
        "dist_gc_km": 14.99,
        "Z_without": 15.13,
        "Z_drop": 0.32
      },
      {
        "index": 37,
        "name": "Bent Pyramid",
        "lat": 29.7902357,
        "lon": 31.20946815,
        "featureType": "pyramid,tomb",
        "minDate": -2670.0,
        "dist_gc_km": 15.04,
        "Z_without": 14.77,
        "Z_drop": 0.68
      },
      {
        "index": 38,
        "name": "Pyramid of Ameny Qemau",
        "lat": 29.7818440739,
        "lon": 31.2216294924,
        "featureType": "pyramid",
        "minDate": -2010.0,
        "dist_gc_km": 16.07,
        "Z_without": 15.49,
        "Z_drop": -0.04
      },
      {
        "index": 39,
        "name": "El Qattah",
        "lat": 30.2170479,
        "lon": 30.9668449,
        "featureType": "cemetery",
        "minDate": -2010.0,
        "dist_gc_km": 34.33,
        "Z_without": 16.28,
        "Z_drop": -0.83
      },
      {
        "index": 40,
        "name": "Pyramid of Amenemhat I",
        "lat": 29.5748412261,
        "lon": 31.2252958361,
        "featureType": "pyramid",
        "minDate": -2010.0,
        "dist_gc_km": 39.03,
        "Z_without": 15.9,
        "Z_drop": -0.45
      },
      {
        "index": 41,
        "name": "Pyramid of Senusret I",
        "lat": 29.56017955,
        "lon": 31.22115665,
        "featureType": "pyramid",
        "minDate": -2010.0,
        "dist_gc_km": 40.62,
        "Z_without": 16.78,
        "Z_drop": -1.33
      }
    ]
  },
  "leave_five_out": {
    "n_runs": 1000,
    "mc_trials_per_run": 100,
    "median_Z": 14.22,
    "min_Z": 11.4,
    "max_Z": 18.38,
    "frac_Z_gt_3": 1.0,
    "frac_Z_gt_2": 1.0
  }
}